7$GPRMCþ$GPRMC,002237.2,A,3457.01404,N,11753.73771,W,000.00,000.0,020310,013.6,E*48
$GPGGA,002237.2,3457.01404,N,11753.73771,W,2,08,1.0,715.4,M,-32.3,M,,*6A
$GPGSA,A,3,11,,14,16,20,23,30,31,32,,,,1.7,1.0,1.4*31
$GPVTG,000.0,T,346.4,M,000.00,N,0000.00,K*7B
$GPRMC,002237.4,A,3457.01408,N,11753.73769,W,000.00,000.0,020310,013.6,E*4B
$GPGGA,002237.4,3457.01408,N,11753.73769,W,2,08,1.0,715.5,M,-32.3,M,,*68
$GPGSA,A,3,11,,14,16,20,23,30,31,32,,,,1.7,1.0,1.4*31
$GPVTG,000.0,T,346.4,M,000.00,N,0000.00,K*7B
$GPRMC,002237.6,A,3457.01412,N,11753.73769,W,000.00,000.0,020310,013.6,E*42
$GPGGA,002237.6,3457.01412,N,11753.73769,W,2,08,1.0,715.6,M,-32.3,M,,*62
$GPGSA,A,3,11,,14,16,20,23,30,31,32,,,,1.7,1.0,1.4*31
$GPVTG,000.0,T,346.4,M,000.00,N,0000.00,K*7B
$GPRMC,002237.8,A,3457.01415,N,11753.73771,W,000.00,000.0,020310,013.6,E*42
$GPGGA,002237.8,3457.01415,N,11753.73771,W,2,08,1.0,715.6,M,-32.3,M,,*62
$GPGSA,A,3,11,,14,16,20,23,30,31,32,,,,1.7,1.0,1.4*31
$GPVTG,000.0,T,346.4,M,000.00,N,0000.00,K*7B
$GPRMC,002238.0,A,3457.01413,N,11753.73776,W,000.00,000.0,020310,013.6,E*44
$GPGGA,002238.0,3457.01413,N,11753.73776,W,2,08,1.0,715.7,M,-32.3,M,,*65
$GPGSA,A,3,11,,14,16,20,23,30,31,32,,,,1.7,1.0,1.4*31
$GPVTG,000.0,T,346.4,M,000.00,N,0000.00,K*7B
$GPRMC,002238.2,A,3457.01417,N,11753.73774,W,000.00,000.0,020310,013.6,E*40
$GPGGA,002238.2,3457.01417,N,11753.73774,W,2,08,1.0,715.7,M,-32.3,M,,*61
$GPGSA,A,3,11,,14,16,20,23,30,31,32,,,,1.7,1.0,1.4*31
$GPVTG,000.0,T,346.4,M,000.00,N,0000.00,K*7B
$GPRMC,002238.4,A,3457.01427,N,11753.73768,W,000.00,000.0,020310,013.6,E*48
$GPGGA,002238.4,3457.01427,N,11753.73768,W,2,08,1.0,715.6,M,-32.3,M,,*68
$GPGSA,A,3,11,,14,16,20,23,30,31,32,,,,1.7,1.0,1.4*31
$GPVTG,000.0,T,346.4,M,000.00,N,0000.00,K*7B
$GPRMC,002238.6,A,3457.01432,N,11753.73761,W,000.00,000.0,020310,013.6,E*47
$GPGGA,002238.6,3457.01432,N,11753.73761,W,2,08,1.0,715.6,M,-32.3,M,,*67
$GPGSA,A,3,11,,14,16,20,23,30,31,32,,,,1.7,1.0,1.4*31
$GPVTG,000.0,T,346.4,M,000.00,N,0000.00,K*7B
$GPRMC,002238.8,A,3457.01436,N,11753.73762,W,000.00,000.0,020310,013.6,E*4E
$GPGGA,002238.8,3457.01436,N,11753.73762,W,2,08,1.0,715.5,M,-32.3,M,,*6D
$GPGSA,A,3,11,,14,16,20,23,30,31,32,,,,1.7,1.0,1.4*31
$GPVTG,000.0,T,346.4,M,000.00,N,0000.00,K*7B
$GPRMC,002239.0,A,3457.01435,N,11753.73766,W,000.00,000.0,020310,013.6,E*40
$GPGGA,002239.0,3457.01435,N,11753.73766,W,2,08,1.0,715.6,M,-32.3,M,,*60
$GPGSA,A,3,11,,14,16,20,23,30,31,32,,,,1.7,1.0,1.4*31
$GPVTG,000.0,T,346.4,M,000.00,N,0000.00,K*7B
$GPRMC,002239.2,A,3457.01429,N,11753.73772,W,000.00,000.0,020310,013.6,E*4A
$GPGGA,002239.2,3457.01429,N,11753.73772,W,2,08,1.0,715.6,M,-32.3,M,,*6A
$GPGSA,A,3,11,,14,16,20,23,30,31,32,,,,1.7,1.0,1.4*31
$GPVTG,000.0,T,346.4,M,000.00,N,0000.00,K*7B
$GPRMC,002239.4,A,3457.01427,N,11753.73776,W,000.00,000.0,020310,013.6,E*46
$GPGGA,002239.4,3457.01427,N,11753.73776,W,2,08,1.0,715.7,M,-32.3,M,,*67
$GPGSA,A,3,11,,14,16,20,23,30,31,32,,,,1.7,1.0,1.4*31
$GPVTG,000.0,T,346.4,M,000.00,N,0000.00,K*7B
$GPRMC,002239.6,A,3457.01433,N,11753.73778,W,000.00,000.0,020310,013.6,E*4F
$GPGGA,002239.6,3457.01433,N,11753.73778,W,2,08,1.0,715.8,M,-32.3,M,,*61
$GPGSA,A,3,11,,14,16,20,23,30,31,32,,,,1.7,1.0,1.4*31
$GPVTG,000.0,T,346.4,M,000.00,N,0000.00,K*7B
$GPRMC,002239.8,A,3457.01437,N,11753.73776,W,000.00,000.0,020310,013.6,E*4B
$GPGGA,002239.8,3457.01437,N,11753.73776,W,2,08,1.0,715.9,M,-32.3,M,,*64
$GPGSA,A,3,11,,14,16,20,23,30,31,32,,,,1.7,1.0,1.4*31
$GPVTG,000.0,T,346.4,M,000.00,N,0000.00,K*7B
$GPRMC,002240.0,A,3457.01445,N,11753.73778,W,000.00,000.0,020310,013.6,E*46
$GPGGA,002240.0,3457.01445,N,11753.73778,W,2,08,1.0,715.9,M,-32.3,M,,*69
$GPGSA,A,3,11,,14,16,20,23,30,31,32,,,,1.7,1.0,1.4*31
$GPVTG,000.0,T,346.4,M,000.00,N,0000.00,K*7B
$GPRMC,002240.2,A,3457.01446,N,11753.73778,W,000.00,000.0,020310,013.6,E*47
$GPGGA,002240.2,3457.01446,N,11753.73778,W,2,08,1.0,715.8,M,-32.3,M,,*69
$GPGSA,A,3,11,,14,16,20,23,30,31,32,,,,1.7,1.0,1.4*31
$GPVTG,000.0,T,346.4,M,000.00,N,0000.00,K*7B
$GPRMC,002240.4,A,3457.01447,N,11753.73785,W,000.00,000.0,020310,013.6,E*42
$GPGGA,002240.4,3457.01447,N,11753.73785,W,2,08,1.0,715.7,M,-32.3,M,,*63
$GPGSA,A,3,11,,14,16,20,23,30,31,32,,,,1.7,1.0,1.4*31
$GPVTG,000.0,T,346.4,M,000.00,N,0000.00,K*7B
$GPRMC,002240.6,A,3457.01447,N,11753.73794,W,000.00,000.0,020310,013.6,E*40
$GPGGA,002240.6,3457.01447,N,11753.73794,W,2,08,1.0,715.7,M,-32.3,M,,*61
$GPGSA,A,3,11,,14,16,20,23,30,31,32,,,,1.7,1.0,1.4*31
$GPVTG,000.0,T,346.4,M,000.00,N,0000.00,K*7B
$GPRMC,002240.8,A,3457.01453,N,11753.73789,W,000.00,000.0,020310,013.6,E*47
$GPGGA,002240.8,3457.01453,N,11753.73789,W,2,08,1.0,715.8,M,-32.3,M,,*69
$GPGSA,A,3,11,,14,16,20,23,30,31,32,,,,1.7,1.0,1.4*31
$GPVTG,000.0,T,346.4,M,000.00,N,0000.00,K*7B
$GPRMC,002241.0,A,3457.01460,N,11753.73784,W,000.00,000.0,020310,013.6,E*43
$GPGGA,002241.0,3457.01460,N,11753.73784,W,2,08,1.0,715.9,M,-32.3,M,,*6C
$GPGSA,A,3,11,,14,16,20,23,30,31,32,,,,1.7,1.0,1.4*31
$GPVTG,000.0,T,346.4,M,000.00,N,0000.00,K*7B
$GPRMC,002241.2,A,3457.01465,N,11753.73786,W,000.00,000.0,020310,013.6,E*46
$GPGGA,002241.2,3457.01465,N,11753.73786,W,2,08,1.0,715.9,M,-32.3,M,,*69
$GPGSA,A,3,11,,14,16,20,23,30,31,32,,,,1.7,1.0,1.4*31
$GPVTG,000.0,T,346.4,M,000.00,N,0000.00,K*7B
$GPRMC,002241.4,A,3457.01468,N,11753.73782,W,000.00,000.0,020310,013.6,E*49
$GPGGA,002241.4,3457.01468,N,11753.73782,W,2,08,1.0,716.0,M,-32.3,M,,*6C
$GPGSA,A,3,11,,14,16,20,23,30,31,32,,,,1.7,1.0,1.4*31
$GPVTG,000.0,T,346.4,M,000.00,N,0000.00,K*7B
$GPRMC,002241.6,A,3457.01468,N,11753.73775,W,000.00,000.0,020310,013.6,E*43
$GPGGA,002241.6,3457.01468,N,11753.73775,W,2,08,1.0,716.0,M,-32.3,M,,*66
$GPGSA,A,3,11,,14,16,20,23,30,31,32,,,,1.7,1.0,1.4*31
$GPVTG,000.0,T,346.4,M,000.00,N,0000.00,K*7B
$GPRMC,002241.8,A,3457.01471,N,11753.73777,W,000.00,000.0,020310,013.6,E*47
$GPGGA,002241.8,3457.01471,N,11753.73777,W,2,08,1.0,716.1,M,-32.3,M,,*63
$GPGSA,A,3,11,,14,16,20,23,30,31,32,,,,1.7,1.0,1.4*31
$GPVTG,000.0,T,346.4,M,000.00,N,0000.00,K*7B
$GPRMC,002242.0,A,3457.01467,N,11753.73781,W,000.00,000.0,020310,013.6,E*42
$GPGGA,002242.0,3457.01467,N,11753.73781,W,2,08,1.0,716.1,M,-32.3,M,,*66
$GPGSA,A,3,11,,14,16,20,23,30,31,32,,,,1.7,1.0,1.4*31
$GPVTG,000.0,T,346.4,M,000.00,N,0000.00,K*7B
$GPRMC,002242.2,A,3457.01461,N,11753.73784,W,000.00,000.0,020310,013.6,E*43
$GPGGA,002242.2,3457.01461,N,11753.73784,W,2,08,1.0,716.2,M,-32.3,M,,*64
$GPGSA,A,3,11,,14,16,20,23,30,31,32,,,,1.7,1.0,1.4*31
$GPVTG,000.0,T,346.4,M,000.00,N,0000.00,K*7B
$GPRMC,002242.4,A,3457.01460,N,11753.73783,W,000.00,000.0,020310,013.6,E*43
$GPGGA,002242.4,3457.01460,N,11753.73783,W,2,08,1.0,716.3,M,-32.3,M,,*65
$GPGSA,A,3,11,,14,16,20,23,30,31,32,,,,1.7,1.0,1.4*31
$GPVTG,000.0,T,346.4,M,000.00,N,0000.00,K*7B
$GPRMC,002242.6,A,3457.01464,N,11753.73793,W,000.00,000.0,020310,013.6,E*44
$GPGGA,002242.6,3457.01464,N,11753.73793,W,2,08,1.0,716.3,M,-32.3,M,,*62
$GPGSA,A,3,11,,14,16,20,23,30,31,32,,,,1.7,1.0,1.4*31
$GPVTG,000.0,T,346.4,M,000.00,N,0000.00,K*7B
$GPRMC,002242.8,A,3457.01461,N,11753.73797,W,000.00,000.0,020310,013.6,E*4B
$GPGGA,002242.8,3457.01461,N,11753.73797,W,2,08,1.0,716.3,M,-32.3,M,,*6D
$GPGSA,A,3,11,,14,16,20,23,30,31,32,,,,1.7,1.0,1.4*31
$GPVTG,000.0,T,346.4,M,000.00,N,0000.00,K*7B
$GPRMC,002243.0,A,3457.01464,N,11753.73797,W,000.00,000.0,020310,013.6,E*47
$GPGGA,002243.0,3457.01464,N,11753.73797,W,2,08,1.0,716.4,M,-32.3,M,,*66
$GPGSA,A,3,11,,14,16,20,23,30,31,32,,,,1.7,1.0,1.4*31
$GPVTG,000.0,T,346.4,M,000.00,N,0000.00,K*7B

34952476,-118005816
34952480,-118005768
34952452,-118005800
34952424,-118005824
34952380,-118005872
34952384,-118005904
34952420,-118005848
34952464,-118005848
34952472,-118005880
34952464,-118005912
34952492,-118005952
34952544,-118005952
34952572,-118005976
34952580,-118005976
34952580,-118005992
34952572,-118006008
34952580,-118005984
34952580,-118006032
34952580,-118006064
34952544,-118006088
34952540,-118006136
34952536,-118006160
34952524,-118006208
34952504,-118006256
34952508,-118006296
34952516,-118006304
34952540,-118006288
34952532,-118006328
34952528,-118006328
34952524,-118006344
34952544,-118006312
34952560,-118006288
34952584,-118006248
34952596,-118006240
34952584,-118006216
34952592,-118006200
34952600,-118006200
34952608,-118006176
34952612,-118006208
34952616,-118006224
34952612,-118006272
34952588,-118006320
34952584,-118006336
34952572,-118006328
34952560,-118006288
34952540,-118006296
34952540,-118006224
34952528,-118006168
34952548,-118006096
34952524,-118006048
34952512,-118006016
34952528,-118005976
34952532,-118006000
34952544,-118006032
34952544,-118006056
34952540,-118006048
34952528,-118006048
34952528,-118006096
34952532,-118006112
34952544,-118006104
34952544,-118006144
34952500,-118006184
34952496,-118006208
34952492,-118006232
34952472,-118006216
34952436,-118006264
34952412,-118006248
34952388,-118006208
34952404,-118006200
34952404,-118006208
34952432,-118006168
34952468,-118006128
34952512,-118006120
34952528,-118006072
34952552,-118006056
34952584,-118006040
34952576,-118006024
34952604,-118006032
34952612,-118006024
34952584,-118006016
34952568,-118006032
34952580,-118006048
34952592,-118006016
34952584,-118006024
34952588,-118006048
34952588,-118006048
34952612,-118006040
34952620,-118006064
34952612,-118006064
34952636,-118006032
34952648,-118006056
34952624,-118006072
34952656,-118006080
34952676,-118006088
34952644,-118006112
34952612,-118006160
34952632,-118006192
34952648,-118006224
